location,max_pop,longitude,latitude
Tokyo,37977000,139.6922,35.6897
Jakarta,34540000,106.8451,-6.2146
Delhi,29617000,77.23,28.66
Mumbai,23355000,72.8333,18.9667
Manila,23088000,120.9772,14.5958
Shanghai,22120000,121.4667,31.1667
Sao Paulo,22046000,-46.6339,-23.5504
Seoul,21794000,127,37.5833
Mexico City,20996000,-99.1333,19.4333
Guangzhou,20902000,113.259,23.1288
Beijing,19433000,116.3914,39.905
Cairo,19372000,31.2394,30.0561
New York,18713220,-73.9249,40.6943
Kolkata,17560000,88.3378,22.5411
Moscow,17125000,37.6178,55.7558
Bangkok,17066000,100.5167,13.75
Buenos Aires,16157000,-58.3819,-34.5997
Shenzhen,15929000,114.054,22.535
Dhaka,15443000,90.3961,23.7161
Lagos,15279000,3.4,6.45
Istanbul,15154000,28.9603,41.01
Osaka,14977000,135.5019,34.6936
Karachi,14835000,67.01,24.86
Bangalore,13707000,77.598,12.9699
Tehran,13633000,51.4167,35.7
Kinshasa,13528000,15.3139,-4.3317
Ho Chi Minh City,13312000,106.6333,10.8167
Los Angeles,12750807,-118.4068,34.1139
Rio de Janeiro,12272000,-43.1964,-22.9083
Nanyang,12010000,112.5292,32.9987
Chennai,11324000,80.275,13.0825
Chengdu,11309000,104.0667,30.6636
Lahore,11021000,74.3436,31.5497
Paris,11020000,2.3522,48.8566
London,10979000,-0.1275,51.5072
Linyi,10820000,118.3425,35.0606
Tianjin,10800000,117.2056,39.1467
Shijiazhuang,10784600,114.5086,38.0422
Baoding,10700000,115.4845,38.8671
Zhoukou,9901000,114.6418,33.625
Lima,9848000,-77.0333,-12.05
Hyderabad,9746000,78.4667,17.3667
Bogota,9464000,-74.0705,4.6126
Weifang,9373000,119.1,36.7167
Nagoya,9113000,136.9333,35.1167
Wuhan,8962000,114.2881,30.5872
Heze,8750000,115.4333,35.2333
Ganzhou,8677600,114.9336,25.8292
Tongshan,8669000,117.1859,34.261
Chicago,8604203,-87.6862,41.8373
Handan,8499000,114.4894,36.6116
Luanda,8417000,13.2344,-8.8383
Fuyang,8360000,115.8045,32.8986
Kuala Lumpur,8285000,101.6953,3.1478
Jining,8023000,116.5667,35.4
Dongguan,7981000,113.7493,23.0475
Hanoi,7785000,105.8412,21.0245
Pune,7764000,73.8553,18.5196
Chongqing,7739000,106.5069,29.55
Changchun,7674439,125.2,43.9
Zhumadian,7640000,114.0253,32.9773
Ningbo,7639000,121.5492,29.875
Onitsha,7635000,6.7833,6.1667
Nanjing,7496000,118.7667,32.05
Hefei,7457027,117.2808,31.8639
Ahmadabad,7410000,72.58,23.03
Hong Kong,7347000,114.185,22.305
Nantong,7282835,120.8873,31.9829
Khartoum,7282000,32.5265,15.6031
Yancheng,7260240,120.1339,33.3936
Foshan,7194311,113.1056,23.0292
Nanning,7153300,108.315,22.8192
Hengyang,7148344,112.5857,26.8968
Xi'an,7135000,108.9,34.2667
Shenyang,7105000,123.4258,41.8039
Tangshan,7100000,118.1742,39.6292
Shaoyang,7071000,111.4725,27.2418
Changsha,7044118,112.9709,28.1987
Santiago,7007000,-70.6667,-33.45
Zhengzhou,7005000,113.6605,34.7492
Zhanjiang,6900000,110.4031,21.1967
Riyadh,6881000,46.71,24.65
Cangzhou,6800000,116.8452,38.3037
Maoming,6706000,110.9178,21.6618
Dar es Salaam,6698000,39.2833,-6.8
Huanggang,6667000,114.875,30.45
Xinyang,6634000,114.0672,32.1264
Shangrao,6579714,117.9633,28.4419
Luoyang,6549941,112.4245,34.6587
Bijie,6537498,105.2863,27.3019
Yantai,6516900,121.2664,37.3997
Quanzhou,6480000,118.5858,24.9139
Hangzhou,6446000,120.1675,30.25
Miami,6445545,-80.2102,25.7839
Kunming,6250000,102.7061,25.0433
Nanchong,6183000,106.0784,30.7991
Zunyi,6127009,106.9336,27.705
Lu'an,6090000,116.5078,31.7542
Yichun,6048700,114.383,27.8041
Taizhou,5968838,121.4221,28.6583
Liaocheng,5955300,115.9833,36.45
Qujing,5855055,103.8029,25.5102
Xiangyang,5844000,112.1531,32.0654
Surat,5807000,72.83,21.17
Baghdad,5796000,44.4167,33.35
Qingdao,5775000,120.4,36.1167
Singapore,5745000,103.8,1.3
Dallas,5743938,-96.7662,32.7936
Changde,5717200,111.6839,29.0397
Dazhou,5693000,107.4947,31.2152
Suzhou,5690000,116.9683,33.6333
Philadelphia,5649300,-75.1339,40.0077
Jieyang,5634000,116.3649,23.5533
Nairobi,5545000,36.8172,-1.2864
Nangandao,5516000,113.8851,35.2992
Ankara,5503985,32.85,39.93
Tai'an,5499000,117.0809,36.2001
Yulin,5487368,110.1507,22.6293
Dezhou,5470000,116.3105,37.4513
Houston,5464251,-95.3889,29.7863
Atlanta,5449398,-84.4224,33.7627
Rangoon,5430000,96.15,16.8
Toronto,5429524,-79.3733,43.7417
Suihua,5420000,126.9808,46.6384
Washington,5379184,-77.0163,38.9047
Qiqihar,5367003,123.9512,47.3398
Jinhua,5361572,119.6494,29.1046
Saint Petersburg,5351935,30.3167,59.95
Shantou,5319028,116.6941,23.3735
Sydney,5312163,151.2094,-33.865
Weinan,5300000,109.4684,34.4996
Suqian,5290000,118.2831,33.9331
Guadalajara,5253000,-103.3475,20.6767
Suzhou,5250000,120.6164,31.304
Fuzhou,5245000,119.2917,26.0769
Zhaotong,5213521,103.7144,27.3328
Pudong,5187200,121.5397,31.2231
Yongzhou,5180235,111.5953,26.4515
Belo Horizonte,5159000,-43.9478,-19.8917
Zhangzhou,5140000,117.6612,24.5093
Bozhou,5100000,115.7742,33.8626
Melbourne,5078193,144.9631,-37.8136
Nanchang,5042565,115.8872,28.6842
Xianyang,5040000,108.7167,34.35
Taizhou,5031000,119.9,32.4831
Abidjan,4980000,-4.0267,5.3364
Surabaya,4975000,112.7378,-7.2458
Ji'an,4956600,114.9793,27.1172
Mianyang,4945000,104.7385,31.4669
Shaoxing,4912239,120.5833,30
Alexandria,4870000,29.9167,31.2
Yuncheng,4860000,110.998,35.0304
Pingdingshan,4838000,113.2999,33.735
Huai'an,4799889,119.1331,33.5
Xinpu,4790000,119.1801,34.5906
Guilin,4747963,110.2833,25.2667
Huaihua,4741948,109.9592,27.5494
Jiujiang,4728778,116.0021,29.7048
Anqing,4723000,117.0333,30.5
Boston,4688346,-71.0846,42.3188
Huanglongsi,4676159,114.3403,34.7936
Xiaoganzhan,4665000,113.911,30.9273
Changzhou,4592431,119.9692,31.8122
Barcelona,4588000,2.1769,41.3825
Chenzhou,4581778,113.0267,25.7989
Wuxi,4580000,120.2833,31.5667
Zibo,4530597,118.0497,36.7831
Jiaxing,4501657,120.75,30.7522
Dalian,4480000,121.61,38.9131
Yangzhou,4459000,119.4363,32.3912
Harbin,4458000,126.6333,45.75
Yibin,4456000,104.64,28.7596
Jiangmen,4448871,113.0833,22.5833
Johannesburg,4434827,28.0416,-26.2044
Meizhou,4378800,116.1191,24.2998
Chifeng,4376600,118.9223,42.2663
Casablanca,4370000,-7.62,33.5992
Guiyang,4365000,106.7078,26.5794
Langfang,4358839,116.7006,39.5196
Zhangjiakou,4345491,114.8811,40.8108
Izmir,4320519,27.1384,38.4127
Linfen,4316610,111.5087,36.0812
Wenzhou,4310000,120.6561,27.9991
Monterrey,4295000,-100.3,25.6667
Luzhou,4291000,105.4409,28.8918
Jiangguanchi,4289000,113.8201,34.0244
Neijiang,4238000,105.0635,29.5872
Phoenix,4219697,-112.0891,33.5722
Yanjiang,4217000,104.6397,30.1256
Yiyang,4174000,112.3333,28.5833
Zhaoqing,4151700,112.465,23.047
Hengshui,4150000,115.686,37.7348
Guigang,4118808,109.6092,23.0961
Xiaoxita,4115000,111.2803,30.7083
Xiamen,4110000,118.0819,24.4797
Chuzhou,4110000,118.3115,32.3062
Fuzhou,4047200,116.3577,27.9814
Amman,4007526,35.9333,31.95
Jeddah,3976000,39.1728,21.5428
Sialkot City,3893672,74.5333,32.5
Huizhou,3875000,114.4152,23.1115
Qingyuan,3874000,113.0507,23.6842
Zhuzhou,3855609,113.1469,27.8407
Wuhu,3842100,118.3622,31.334
Hechi,3830000,109.6091,23.0965
Seattle,3789215,-122.3244,47.6211
Loudi,3785627,111.9974,27.7378
Binzhou,3779200,118.0125,37.3806
Liuzhou,3758704,109.4069,24.3181
Yokohama,3748781,139.6333,35.4333
Baojishi,3738700,107.1751,34.3609
Guang'an,3723000,106.6336,30.4673
Hanzhong,3700000,107.026,33.0794
Kabul,3678034,69.1658,34.5328
Zaozhuang,3650000,117.55,34.8667
Anshan,3645884,122.9895,41.1066
Berlin,3644826,13.3833,52.5167
Deyang,3636000,104.395,31.1289
Lanzhou,3616163,103.8318,36.0617
Chengde,3610000,117.9322,40.9739
San Francisco,3592294,-122.443,37.7562
Puyang,3580000,115.03,35.7639
Suining,3556000,105.5737,30.5098
Jiaozuo,3540101,113.2304,35.229
Bengbu,3525000,117.3531,32.9354
Montreal,3519595,-73.5617,45.5089
Detroit,3506126,-83.1024,42.3834
Baicheng,3466758,106.6194,23.901
Busan,3440484,129.0403,35.1
Algiers,3415811,3.0586,36.7764
Qincheng,3400000,105.7311,34.5809
Taiyuan,3398000,112.5425,37.8733
Lucknow,3382000,80.947,26.847
Chaoyang,3370000,120.4486,41.5757
Hechi,3369251,108.085,24.6928
Leshan,3364000,103.7575,29.5854
Yulinshi,3328000,109.7388,38.2655
Siping,3300000,124.3644,43.1715
Madrid,3266126,-3.6919,40.4189
Jinan,3250000,116.9833,36.6667
Changzhi,3230000,113.097,36.1953
Shiyan,3228000,110.7755,32.6351
San Diego,3220118,-117.1225,32.8312
Faisalabad,3203846,73.079,31.418
Santa Cruz,3151676,-63.1975,-17.7892
Bazhou,3134000,106.7559,31.8576
Zhongshan,3121275,113.35,22.5333
Zhenjiang,3113384,119.4551,32.2109
Urumqi,3112559,87.6,43.825
Tongliao,3094600,122.264,43.6172
Heyuan,3093900,114.6923,23.7503
Tongren,3093204,109.1885,27.7233
Qinzhou,3079721,108.6167,21.95
Jaipur,3073350,75.8667,26.9167
Xinzhou,3067501,112.7233,38.4178
Addis Ababa,3041002,38.7369,9.0272
Giza,3021542,31.2118,29.987
Meishan,3020000,103.8381,30.0575
Brasilia,3015268,-48.0773,-15.7744
Mashhad,3001184,59.6042,36.3069
Jinzhou,3000000,121.1292,41.1144
Tieling,3000000,123.8365,42.2841
Shaoguan,2997600,113.5927,24.8011
Shanwei,2990000,115.3331,22.7664
Minneapolis,2977172,-93.2678,44.9635
Kyiv,2967000,30.5236,50.45
Sanaa,2957000,44.2,15.35
Quezon City,2936116,121.0333,14.6333
Dingxi,2930000,104.6263,35.5806
Salvador,2921087,-38.5108,-12.9708
Incheon,2913024,126.6486,37.4639
Ningde,2910000,119.5167,26.6667
Tampa,2908063,-82.4451,27.9942
Daqing,2904532,125.008,46.5979
Bursa,2901396,29.0667,40.1833
Putian,2900000,119.0103,25.4394
Birmingham,2897303,-1.9025,52.48
Huzhou,2893542,120.0958,30.8695
Wuzhou,2882200,111.3167,23.4833
Denver,2876625,-104.8759,39.7621
Rome,2872800,12.4828,41.8931
La Paz,2867504,-68.1475,-16.4942
Pyongyang,2863000,125.73,39.03
Kano,2828861,8.5167,12
Omdurman,2805396,32.4629,15.6835
Taichung,2803894,120.6667,24.15
Zigong,2800000,104.7645,29.3498
Qinhuangdao,2800000,119.5881,39.9398
Mudanjiang,2790000,129.5997,44.5861
Huludao,2787000,120.8378,40.7094
Kaohsiung,2773533,120.3,22.6167
Xiangtan,2748552,112.9228,27.8431
Guayaquil,2723665,-79.8833,-2.1833
Rizhao,2720000,119.4331,35.4164
Manchester,2705000,-2.2453,53.4794
Cawnpore,2701324,80.3311,26.4725
Baotou,2700000,109.8345,40.6562
Nanping,2690000,118.1728,26.6448
Taipei,2684567,121.5319,25.0478
Longyan,2640000,117.0244,25.0881
Hohhot,2635000,111.6629,40.8151
Ibadan,2628000,3.9167,7.3964
Chaozhou,2620000,116.63,23.67
Longba,2614000,105.349,33.535
Antananarivo,2610000,47.5214,-18.9386
Weihai,2596753,122.1,37.5
Santo Domingo,2581827,-69.8933,18.4764
Chattogram,2581643,91.8325,22.335
Xuanzhou,2580000,118.7518,30.9475
Sanming,2580000,117.6302,26.2658
Brooklyn,2559903,-73.9496,40.6501
Medellin,2529403,-75.5748,6.2447
Brisbane,2514184,153.0281,-27.4678
Baoshan,2506491,99.169,25.1211
Dubai,2502715,55.3094,25.2697
Luohe,2500000,114.0109,33.583
Qinbaling,2500000,107.64,35.7278
Mirzapur,2496970,82.58,25.15
Guangyuan,2484122,105.8398,32.4353
Cali,2471474,-76.5197,3.44
Daegu,2461002,128.6,35.8667
Fortaleza,2452185,-38.5275,-3.7275
Guatemala City,2450212,-90.5252,14.6099
Douala,2446945,9.7,4.05
Yaounde,2440462,11.5181,3.8578
Lincang,2429497,100.0871,23.8864
Antalya,2426356,30.6956,36.9081
Lianshan,2426000,120.83,40.7503
Tashkent,2424100,69.2667,41.3
Huangshi,2419000,115.0326,30.2018
Huainan,2409000,117.0164,32.4831
Nagpur,2405665,79.0831,21.1539
Dandong,2400000,124.3833,40.1167
Shangzhou,2400000,109.9244,33.868
Jilin,2396000,126.55,43.85
Bandung,2394873,107.5667,-6.95
Tijuana,2384609,-117.0333,32.525
Ghaziabad,2381452,77.4167,28.6667
Bekasi,2381053,107,-6.2333
Jiamusi,2360000,130.3653,46.8081
Yangjiang,2357000,111.9627,21.8556
Yuxi,2303518,102.5432,24.3495
Fushun,2300000,123.8917,41.8708
Anshun,2297612,105.934,26.2456
Accra,2291352,-0.187,5.6037
Vancouver,2264823,-123.1,49.25
Tangerang,2237006,106.6319,-6.1783
Konya,2232374,32.4847,37.8714
Queens,2230722,-73.7976,40.7498
Adana,2220125,35.325,37
Yingkou,2220000,122.2297,40.6653
Sanmenxia,2213000,111.195,34.7736
Medan,2210625,98.6667,3.6667
Ma'anshan,2202899,118.3605,31.7135
Indore,2201927,75.8472,22.7206
Pingliang,2190000,106.6819,35.5412
Quzhou,2185000,118.8763,28.9545
Baku,2181800,49.8352,40.3667
Gaoping,2174000,106.13,30.7804
Huaibei,2158000,116.789,33.9562
Xining,2154000,101.7787,36.6239
Yan'an,2150000,109.4863,36.5952
Havana,2141652,-82.3589,23.1367
Phnom Penh,2129371,104.921,11.5696
Fukuoka,2128000,130.4019,33.5903
Mogadishu,2120000,45.3425,2.0408
Jincheng,2120000,112.8483,35.4906
Lishui,2116957,119.9167,28.45
Qingyang,2111000,118.5792,24.8141
Riverside,2107852,-117.3948,33.9381
Baltimore,2106068,-76.6144,39.3051
Las Vegas,2104198,-115.2654,36.2333
Haiphong,2103500,106.6667,20.8
Laibin,2099711,109.2333,23.7333
Rawalpindi,2098231,73.0679,33.6007
Portland,2074775,-122.65,45.5372
Kumasi,2069350,-1.6167,6.6833
Vadodara,2065771,73.2,22.3
Perth,2059484,115.8589,-31.9522
Puning,2055552,116.1586,23.2993
San Antonio,2049293,-98.5253,29.4658
Haikou,2046189,110.32,20.02
Vishakhapatnam,2035922,83.3167,17.7333
Gaziantep,2028563,37.3833,37.0667
St. Louis,2024074,-90.2451,38.6358
Minsk,2020600,27.5618,53.9022
Quito,2011388,-78.5097,-0.2186
Bamako,2009109,-7.9922,12.6458
Pingxiang,2001027,113.85,27.6333
Chongzuo,1994285,107.3667,22.4167
Sanliurfa,1985753,38.7917,37.1583
Kananga,1971704,22.4488,-5.897
Peshawar,1970042,71.5,34
Sapporo,1958756,141.3544,43.0621
Jixi,1950000,130.965,45.2937
Caracas,1943901,-66.9333,10.5
Fuxin,1930000,121.6486,42.0127
Leeds,1901934,-1.5492,53.7997
Sacramento,1898019,-121.4683,38.5667
Blantyre,1895973,35.0058,-15.7861
Wuwei,1890000,102.6329,37.9278
Tainan,1883831,120.1833,22.9833
Bucharest,1883425,26.0833,44.4
Bhopal,1883381,77.4167,23.25
Curitiba,1879355,-49.2719,-25.4297
Xiping,1873000,113.3,40.08
Asuncion,1870000,-57.6333,-25.3
Saidu Sharif,1860310,72.3572,34.75
Hamburg,1841179,10,53.55
Vienna,1840573,16.3731,48.2083
Aleppo,1834093,37.15,36.2
Meru,1833000,37.65,0.05
Brazzaville,1827000,15.2833,-4.2667
Orlando,1822394,-81.3369,28.4772
Mersin,1814468,34.6167,36.8
Almaty,1806833,76.9,43.25
Kyoto,1805000,135.7669,35.0111
Manaus,1802014,-60.0167,-3.1
Liaoyang,1800000,123.1772,41.2643
Baiyin,1799000,104.1766,36.5448
San Jose,1798103,-121.8486,37.3019
Barranquilla,1798000,-74.8,10.96
Warsaw,1790658,21.0333,52.2167
Shengli,1790000,118.4667,37.45
Lubumbashi,1786397,27.4581,-11.6697
Shuyangzha,1770000,118.7734,34.1299
Esfahan,1756126,51.6675,32.6447
Damascus,1754000,36.2919,33.5131
Shangqiu,1753000,115.65,34.4504
Budapest,1752286,19.0408,47.4983
Heihe,1750000,127.4886,50.2458
Lusaka,1742979,28.2833,-15.4167
Diyarbakir,1732396,40.2367,37.9108
Chinchvad,1729320,73.8131,18.6278
Shuozhou,1714857,112.4292,39.3408
Cleveland,1710093,-81.6804,41.4767
Vitoria,1704000,-40.366,-20.324
Pittsburgh,1703266,-79.9762,40.4396
Mecca,1700000,39.8261,21.4225
Mosul,1694000,43.1167,36.3667
Austin,1687311,-97.7522,30.3004
Patna,1684222,85.1414,25.61
Sanzhou,1680000,108.4,30.82
Conakry,1667864,-13.7122,9.5092
Cincinnati,1662691,-84.5061,39.1413
Kampala,1659600,32.5811,0.3136
Ecatepec,1656107,-99.06,19.6097
Yushan,1651200,120.9766,31.3867
Makassar,1651146,119.4136,-5.1331
Newcastle,1650000,-1.6578,55.0077
Ludhiana,1649000,75.8486,30.9083
Kansas City,1636715,-94.5541,39.1239
Davao,1632991,125.6,7.0667
Zhongli,1632616,121.2168,24.965
Depok,1631951,106.8225,-6.394
Manhattan,1628706,-73.9662,40.7834
Rabat,1628000,-6.8361,34.0253
Ouagadougou,1626950,-1.5353,12.3572
Semarang,1621384,110.4167,-6.9667
Yinchuan,1616000,106.2254,38.4795
Multan,1606481,71.4711,30.1978
Harare,1606000,31.0522,-17.8292
Chengtangcun,1603659,117.15,35.0833
Novosibirsk,1602915,82.9167,55.0333
Karaj,1592492,50.9915,35.8327
Indianapolis,1588961,-86.1458,39.7771
Jingdezhen,1587477,117.2036,29.2942
Agra,1585705,78.02,27.18
Caloocan City,1583978,120.9667,14.65
Kalyan,1576614,73.1602,19.2502
Puebla,1576259,-98.1833,19.0333
Gujranwala,1569090,74.1833,32.15
Benxi,1567000,123.761,41.292
Columbus,1562009,-82.985,39.9862
Zhuhai,1562000,113.5678,22.2769
Madurai,1561129,78.1194,9.9197
Tabriz,1558693,46.2833,38.0833
Jamshedpur,1558000,86.1833,22.8
Recife,1555039,-34.8808,-8.0539
Maracaibo,1551539,-71.6333,10.6333
Santiago,1550753,-70.67,19.5
Beihai,1539251,109.1,21.4667
Shuangyashan,1530000,131.1545,46.6388
Kobe,1522944,135.183,34.6913
Charlotte,1512923,-80.8304,35.208
Yucheng,1512000,103.0007,29.9888
Changshu,1510100,120.7333,31.65
Ximeicun,1508000,118.3811,24.9633
Jianguang,1507402,115.7833,28.1958
Xushan,1502000,121.2665,30.1697
Gwangju,1501557,126.9167,35.1667
Guiping,1496904,110.0833,23.4
Nasik,1486053,73.7833,20
Zhangjiajie,1486000,110.4844,29.1255
Porto Alegre,1484941,-51.23,-30.0328
Valencia,1484430,-68,10.1667
Virginia Beach,1478868,-76.0435,36.7335
Daejeon,1475221,127.385,36.351
Munich,1471508,11.5755,48.1372
Yunfu,1470000,112.0353,22.9242
Huangshan,1470000,118.3151,29.7132
Yekaterinburg,1468833,60.6128,56.8356
Huazhou,1468061,112.079,32.6832
Auckland,1467800,174.7833,-36.85
Shiraz,1460665,52.5425,29.61
Pizhou,1458038,118.0097,34.3422
Leon de los Aldama,1454793,-101.6833,21.1167
Palembang,1452456,104.7644,-2.9833
Kharkiv,1446107,36.2292,50
Lianjiang,1443099,110.2794,21.6146
Kawanakajima,1437266,139.705,35.53
Chizhou,1430000,117.4849,30.6583
Leizhou,1427664,110.0806,20.9147
Guyuan,1426000,106.2782,36.008
Rui'an,1424667,120.6526,27.778
Birstall,1424216,-1.12,52.6736
Muscat,1421409,58.5922,23.6139
Hebi,1419000,114.2887,35.7497
Jingling,1418913,113.1667,30.6667
Bronx,1418207,-73.8662,40.8501
The Hague,1406000,4.27,52.08
Owerri,1401873,7.0333,5.4833
Sharjah,1400000,55.3919,25.3575
Ulaanbaatar,1396288,106.9172,47.9203
Faridabad,1394000,77.3167,28.4333
Goiania,1393575,-49.2539,-16.6789
Belem,1393399,-48.5039,-1.4558
Kayseri,1389680,35.4833,38.7333
Yueqing,1389332,120.9621,28.1188
Pingdu,1378900,119.9556,36.7833
Belgrade,1378682,20.4667,44.8167
Aurangabad,1371330,75.32,19.88
Yutan,1368117,112.554,28.3147
Wenling,1366794,121.3718,28.3797
Milwaukee,1365787,-87.9673,43.0642
Islamabad,1365000,73.0369,33.6989
Sofia,1355142,23.3241,42.6975
Milan,1351562,9.19,45.4669
Adelaide,1345777,138.6011,-34.9289
Samsun,1335716,36.33,41.2867
Rajkot,1335397,70.7984,22.2969
Cordoba,1329604,-64.1833,-31.4167
Guarulhos,1324781,-46.5333,-23.4667
Prague,1324277,14.4167,50.0833
Juarez,1321004,-106.487,31.7386
Montevideo,1319108,-56.1667,-34.8667
Fuqing,1316000,119.3735,25.7232
Xintai,1315942,117.78,35.91
Doha,1312947,51.5333,25.3
Khulna,1311100,89.55,22.8167
Saitama,1307931,139.6453,35.8617
Hiroshima,1306589,132.4553,34.3853
Meerut,1305429,77.7,28.99
Yushu,1304436,126.5451,44.8249
Rongcheng,1302891,104.0966,26.2312
Yangquan,1300000,113.5762,37.8576
Mbuji-Mayi,1295000,23.5967,-6.1209
Haicheng,1293877,122.7474,40.8523
Gaozhou,1288665,110.8461,21.9392
Yingtan,1288615,117,28.2333
Wuzhong,1284000,106.1919,37.9874
Zhangye,1270000,100.4553,38.9355
Jabalpur,1267564,79.9333,23.1667
Rucheng,1267066,120.5634,32.3852
Nizhniy Novgorod,1264075,44.0075,56.3269
Huaiyin,1264000,119.03,33.58
Thane,1261517,72.9633,19.18
Shaoyang,1253548,119.8404,32.9387
Yangshe,1253100,120.5512,31.8775
Comayaguela,1250000,-87.2167,14.0833
Yichun,1250000,128.8893,47.7235
Laiwu,1248636,117.6667,36.1833
Dhanbad,1246000,86.435,23.7928
Dayan,1244769,100.2208,26.8808
Kazan,1243500,49.1144,55.7908
Jiangyin,1241045,120.2653,31.9087
Yongcheng,1240382,116.4459,33.9317
Calgary,1239220,-114.0667,51.05
Can Tho,1237300,105.7833,10.0333
Abuja,1235880,7.4914,9.0556
Suwon,1234300,127.01,37.2858
Yiwu,1234015,120.0698,29.3081
Al Basrah,1225793,47.81,30.4889
Mandalay,1225546,96.0869,21.9769
Beidao,1225000,105.92,34.6
Shuangshui,1221000,104.8333,26.5944
Sevilla,1212045,-5.9731,37.3828
Vila Velha,1209091,-51.2167,3.2167
Providence,1203230,-71.4187,41.823
Chelyabinsk,1202371,61.4,55.15
Qom,1201158,50.8789,34.6461
Allahabad,1201000,81.84,25.455
Tunis,1200000,10.18,36.8008
Mombasa,1200000,39.6667,-4.05
Varanasi,1198491,83.0128,25.3189
Maiduguri,1197497,13.15,11.8333
Rosario,1193605,-60.6394,-32.9575
Maputo,1191613,32.5764,-25.9153
Benin City,1190000,5.6145,6.3176
Xinyu,1186700,114.9242,27.795
Ahvaz,1184788,48.6692,31.3203
Jacksonville,1181496,-81.6749,30.3322
Medina,1180770,39.6,24.4667
Srinagar,1180570,74.8061,34.0911
Huazhou,1178809,110.6294,21.654
Omsk,1178391,73.3833,54.9667
Xiantao,1175085,113.4,30.3833
Cilacap,1174964,109.017,-7.7167
Dublin,1173179,-6.2658,53.3425
Samara,1169719,50.1167,53.1833
Guankou,1168056,113.625,28.1417
Bandar Lampung,1166761,105.2625,-5.4294
Ulsan,1166033,129.3167,35.55
Dingzhou,1165182,114.9845,38.5158
Campinas,1164098,-47.0573,-22.9009
Lianyuan,1162928,111.6659,27.6961
Rongcheng,1162770,112.9019,29.8239
Nay Pyi Taw,1160242,96.1583,19.8028
Kaiyuan,1160000,113.8153,36.0656
Zhuji,1157938,120.2314,29.7169
Zapopan,1155790,-103.4,20.7167
Leiyang,1151554,112.8457,26.4179
Dakar,1146053,-17.4572,14.7319
Dadukou,1144000,101.7149,26.5849
Quetta,1140000,67.007,30.192
Amritsar,1132383,74.85,31.6167
Yingchuan,1131896,113.4733,34.1511
Aligarh,1131160,78.08,27.88
Callao,1129854,-77.1333,-12.0611
Tegucigalpa,1126534,-87.2067,14.0942
Tripoli,1126000,13.1875,32.8752
Bhiwandi,1125898,73.0667,19.3
Rostov,1125299,39.7167,47.2333
Zhoushan,1121261,122.0988,30.0162
Tbilisi,1118035,44.7925,41.7225
Ufa,1115560,55.9667,54.7333
Fes,1112072,-5.0033,34.0433
Nezahualcoyotl,1110565,-98.9889,19.4
Ciudad Nezahualcoyotl,1109363,-99.03,19.41
Bien Hoa,1104000,106.8426,10.9575
Mexicali,1102342,-115.4678,32.6633
Gwalior,1101981,78.1931,26.215
Ankang,1100000,109.0235,32.6877
Hegang,1100000,130.2775,47.3139
Ikare,1099931,5.76,7.5304
Salt Lake City,1098526,-111.9306,40.7777
Bhilai,1097000,81.4333,21.2167
Yuyao,1095000,121.1546,30.0372
Hanchuan,1092700,113.8274,30.652
Gongzhuling,1092692,124.8088,43.5036
N'Djamena,1092066,15.05,12.11
Irbid,1088100,35.85,32.5556
Cologne,1085664,6.9578,50.9422
Copenhagen,1085000,12.5635,55.6786
Krasnoyarsk,1083865,92.8667,56.0167
Yicheng,1082929,119.8239,31.3697
Mizhou,1081960,119.4167,36
Nashville,1081903,-86.7843,36.1715
Nur-Sultan,1078362,71.4333,51.1333
Nouakchott,1077169,-15.9744,18.0783
Haora,1077075,88.31,22.59
Yerevan,1075800,44.5144,40.1814
Richmond,1075798,-77.4756,37.5295
Vereeniging,1074000,27.9319,-26.6736
Taixing,1073921,120.0142,32.1724
Sao Luis,1073893,-44.3028,-2.53
San Pedro Sula,1073824,-88.0333,15.5
Ranchi,1073440,85.3347,23.3556
Memphis,1066967,-89.9773,35.1046
Edmonton,1062643,-113.4903,53.5344
Goyang,1061929,126.835,37.6564
Xishan,1060000,113.4946,27.6609
Barquisimeto,1059092,-69.3467,10.0678
Sendai,1058070,140.8694,38.2683
Bezwada,1048240,80.6167,16.5167
Perm,1048005,56.2489,58.0139
Voronezh,1047549,39.2106,51.6717
Changwon,1046054,128.6811,35.2281
Zhongwei,1046000,105.1884,37.5139
Shouguang,1039205,118.7333,36.8833
Raleigh,1038738,-78.6435,35.8325
Cartagena,1036412,-75.5253,10.4236
Matola,1032197,32.4667,-25.9667
Ogbomoso,1032000,4.25,8.1333
Ashgabat,1031992,58.3833,37.95
Amsterdam,1031000,4.9166,52.35
E'zhou,1031000,114.8842,30.3972
Bogor,1030720,106.8,-6.6
Tekirdag,1029927,27.5167,40.9833
Patam,1029808,104.0167,1.0678
Maceio,1029129,-35.735,-9.6658
Linhai,1028813,121.1409,28.8523
Managua,1028808,-86.2667,12.15
Bishkek,1027200,74.5667,42.8667
Niamey,1026848,2.1111,13.5086
Chandigarh,1026459,76.7911,30.7353
Shubra al Khaymah,1025569,31.2422,30.1286
Wafangdian,1024876,121.9972,39.6271
Zhongxiang,1022514,112.5853,31.169
Monrovia,1021762,-10.8047,6.3106
New Orleans,1020886,-89.9288,30.0687
Shymkent,1018974,69.6,42.3
Volgograd,1015586,44.4833,48.7
Mysore,1014227,76.6531,12.3086
Odesa,1010783,30.7326,46.4775
Raipur,1010087,81.6337,21.2379
Arequipa,1008290,-71.5369,-16.3988
Nice,1006402,7.2663,43.7034
Port Harcourt,1005904,7,4.75
Louisville,1005654,-85.6485,38.1663
Rotterdam,1005000,4.48,51.92
Zaoyang,1004741,112.7581,32.1287
Shuizhai,1003698,114.8994,33.4433
Kota,1001694,75.83,25.18
Abu Dhabi,1000000,54.3686,24.4781
Bareilly,1000000,79.415,28.364
Quang Ha,1000000,108.25,16.06
Kitaku,997536,130.82,33.8704
Jodhpur,995000,73.0168,26.2918
Xingcheng,993000,115.6669,24.1681
Dongtai,990306,120.3037,32.8534
Ottawa,989567,-75.695,45.4247
Joinvile,988000,-48.8399,-26.32
Port-au-Prince,987310,-72.3386,18.5425
Yingcheng,986400,113.4042,24.1876
Glasgow,985290,-4.2514,55.8609
Dnipro,983836,34.9833,48.45
Danyang,980662,119.575,31.9948
Natal,980588,-60.2699,-6.9838
Chiba,980203,140.1,35.6
Zhaodong,980000,125.9773,46.0635
Xibeijie,977600,98.5049,39.737
Kathmandu,975453,85.3667,27.7167
Kirkuk,975000,44.4,35.4667
Oklahoma City,972943,-97.5136,35.4676
Stockholm,972647,18.0686,59.3294
Huilong,972525,121.6574,31.8131
Naples,972212,14.25,40.8333
Tongjin,971327,127.2011,37.2361
Toulouse,968638,1.444,43.6045
Denizli,963464,29.0878,37.7731
Asmara,963000,38.9167,15.3333
Coimbatore,959823,76.9667,11
Luocheng,959006,111.5745,22.7645
Dispur,957352,91.77,26.15
Guwahati,957352,91.7667,26.1667
Shima,956400,117.8118,24.4475
Solapur,951558,75.9167,17.6833
Freetown,951000,-13.2331,8.4833
Songnam,948757,127.1378,37.4386
Tangier,947952,-5.8125,35.7847
Anqiu,947723,119.1072,36.3619
Feicheng,946627,116.772,36.186
Taishan,941095,112.785,22.2486
Khartoum North,936349,32.6333,15.6333
Meishan,936000,112.839,34.1736
Kisangani,935977,25.1911,0.5153
Aguascalientes,934424,-102.296,21.876
Nada,932356,109.5833,19.5
Taihecun,930000,131.0063,45.768
Donetsk,929063,37.8042,48.0089
Marrakech,928850,-7.9811,31.6295
Wuchuan,927275,110.7659,21.4571
Taihe,924531,105.3784,30.8706
Bridgeport,924449,-73.1953,41.1918
Cebu City,922611,123.9,10.3
Olinda,921840,-34.85,-8
Xin'an,920628,118.3369,34.3662
Trujillo,919899,-79.0289,-8.1119
Jerusalem,919438,35.2167,31.7833
Trichinopoly,916857,78.6928,10.8269
Padang,914970,100.3606,-0.9556
Buffalo,914341,-78.8487,42.9016
Qingzhou,914047,118.4797,36.6967
Xinyi,913708,110.9369,22.3559
Lichuan,913700,108.9378,30.2965
Daye,909724,114.9699,30.1003
Fort Worth,909585,-97.3473,32.7811
Zhuanghe,905852,122.9664,39.6896
Hartford,905152,-72.6834,41.7661
Ad Dammam,903312,50.1,26.4333
Lhasa,902500,91.1,29.65
Jiaozhou,900500,119.9625,36.2481
Homs,900492,36.7167,34.7333
Merida,892363,-89.62,20.97
Hubli,890000,75.125,15.36
Zaria,889000,7.7,11.0667
Abeokuta,888924,3.35,7.15
Tucson,888486,-110.8782,32.1545
Dengtalu,887000,114.35,36.08
Krasnodar,881476,38.9833,45.0333
Panama City,880691,-79.5,9
Chihuahua,878062,-106.0889,28.6353
Klang,878000,101.45,3.0333
Natal,877662,-35.2089,-5.795
Novo Hamburgo,876990,-51.14,-29.7096
Campo Grande,874210,-54.6222,-20.4686
Laiyang,874127,120.7136,36.9758
Barinas,873962,-70.2167,8.6333
Jos,873943,8.8833,9.9333
Jalandhar,873725,75.5792,31.3256
Kaifeng Chengguanzhen,872000,114.35,34.85
Eskisehir,871187,30.5206,39.7767
Turin,870952,7.7,45.0667
Marseille,870018,5.37,43.2964
Gaomi,868715,119.75,36.3833
Bucheon,867678,126.7831,37.4989
Ipoh,866772,101.07,4.6
Hai'an,866337,120.4604,32.532
Liverpool,864122,-2.9833,53.4
Zamboanga City,861799,122.0833,6.9167
Weichanglu,859424,119.9333,37.1792
Portsmouth,855679,-1.0872,50.8058
Southampton,855569,-1.4,50.9
Pekanbaru,855221,101.45,0.5333
Leping,852800,117.1203,28.9632
Erbil,852500,44.0094,36.1911
Oran,852000,-0.6331,35.6969
Kermanshah,851405,47.0686,34.3167
Sale,850403,-6.8167,34.05
Hailun,850000,126.9632,47.4585
Yangchun,849504,111.7833,22.1667
Macheng,849090,115.0189,31.1817
Omaha,847819,-96.0522,41.2627
Ilorin,847582,4.55,8.5
Teresina,847430,-42.8042,-5.0949
Saratov,845300,46,51.5333
Iguacu,844583,-43.47,-22.74
El Paso,843386,-106.4309,31.8479
Yuci,840000,112.73,37.6804
Dehui,839786,125.6965,44.5323
Bhubaneshwar,837737,85.8281,20.2644
Lome,837437,1.2228,6.1319
Tongchuan,835600,108.9422,34.9057
Denpasar,834881,115.2167,-8.6667
Naucalpan de Juarez,833779,-99.2378,19.4753
Cheongju,833276,127.4897,36.6372
Warri,830106,5.75,5.5167
Pointe-Noire,829134,11.8653,-4.7889
Rongjiawan,826000,113.1,29.3801
San Luis Potosi,824229,-100.9761,22.1511
Renqiu,822455,116.1008,38.7094
Butterworth,821652,100.3664,5.3942
Honolulu,820987,-157.846,21.3294
Toluca,819561,-99.6569,19.2925
Xindi,819446,113.4653,29.8182
Wu'an,819000,114.1847,36.6941
Sao Bernardo do Campo,816925,-46.565,-23.6939
Wutong,815848,120.5474,30.6326
Bhayandar,814655,72.85,19.3
Hermosillo,812229,-110.9542,29.0989
Gaoyou,811800,119.4432,32.7847
Yiyang,810447,112.3913,26.4103
Hejian,810306,116.0897,38.4451
Puxi,809535,114.735,35.2125
Trabzon,807903,39.7225,41.005
Zijinglu,807857,112.9854,34.7513
Saltillo,807537,-101,25.4333
Xiashi,806966,120.6833,30.5333
Taguig City,804915,121.05,14.5167
Queretaro,804663,-100.3928,20.5875
Dongyang,804398,120.2282,29.2785
McAllen,804114,-98.2471,26.2273
Joao Pessoa,801718,-34.8333,-7.0833
Qingping,797200,113.3796,34.538
Libreville,797003,9.4544,0.3901
Niigata,796500,139.0364,37.9161
Valencia,794288,-0.375,39.4667
Hamamatsu,791770,137.7333,34.7167
Zagreb,790017,15.95,45.8
Xiangxiang,787216,112.5223,27.7389
Moradabad,787000,78.7568,28.8418
Culiacan,785800,-107.3939,24.8069
Morelia,784776,-101.1894,19.7683
Xingyi,783120,104.9011,25.091
Chaohucun,782000,117.7353,31.6783
Lilongwe,781538,33.7833,-13.9833
Dushanbe,780000,68.7864,38.5731
Malang,780000,112.62,-7.98
Antipolo,776386,121.1763,14.5842
Cencheng,772113,111.0186,22.9297
Fuyang,771000,119.9519,30.0533
Nottingham,768638,-1.15,52.95
Hempstead,768057,-73.6089,40.6629
Erzurum,767848,41.2756,39.9097
Al `Ayn,766936,55.7447,24.2075
Krakow,766739,19.9372,50.0614
Songzi,765911,111.7732,30.1772
Laixi,762900,120.5333,36.8667
Zhongba,762140,104.7406,31.7761
Cotonou,762000,2.52,6.4
Albuquerque,761195,-106.6464,35.1053
Qingnian,760781,115.7061,36.8494
Kaduna,760084,7.4403,10.5231
Vientiane,760000,102.6,17.9667
Xinhualu,758079,113.7249,34.3962
Guangshui,755910,113.8229,31.6189
Pasig City,755300,121.0833,14.575
Samarinda,753370,117.1536,-0.5022
Frankfurt,753056,8.6797,50.1136
Colombo,752993,79.8333,6.9167
Ciudad Guayana,751331,-62.6517,8.3596
Hungnam,751322,127.6232,39.8231
Pietermaritzburg,750845,30.4167,-29.5833
Tlalnepantla,750224,-99.1947,19.5367
Changhua,750000,120.5333,24.0667
Kolhapur,750000,74.2333,16.7
Cucuta,750000,-72.5047,7.9075
Licheng,749522,119.4786,31.4174
Kigali,745261,30.0606,-1.9536
Tyumen,744554,65.5333,57.15
San Cristobal,743924,-72.2322,7.7682
Thiruvananthapuram,743691,76.8997,8.5
Cancun,743626,-86.8475,21.1606
Zaporizhzhia,741717,35.1383,47.8378
Pretoria,741651,28.1881,-25.7464
Chengguan,740435,113.7975,35.4599
Nehe,740000,124.8738,48.48
Birmingham,739573,-86.7987,33.5277
Kumamoto,739393,130.7078,32.8031
Zunhua,737011,117.9593,40.1881
Orumiyeh,736224,45.1,37.55
Oyo,736072,3.9333,7.8333
Wugang,734870,110.6293,26.7345
Bangui,734350,18.5628,4.3732
Shuangqiao,733000,112.5833,35.0833
Sokoto,732178,5.2339,13.0622
Sizhan,730400,106.3694,39.0099
Langzhong,728935,105.972,31.5833
Qian'an,728160,118.6973,40.0059
Rennes,727357,-1.6794,48.1147
Zouping,726722,117.7424,36.8625
Reynosa,725793,-98.2778,26.0922
Bremen,724909,8.7975,53.1153
An Najaf,724700,44.3396,32.029
Lviv,724314,24.0315,49.8419
Bristol,724000,-2.5833,51.45
Guli,723490,120.0284,28.9008
Sagamihara,722828,139.3667,35.5667
Sarasota,722243,-82.5431,27.3386
Mississauga,721599,-79.65,43.6
Lingbao Chengguanzhen,721049,110.8786,34.5221
Okayama,720865,133.9167,34.65
Anlu,720000,113.6783,31.2575
Wusong,720000,117.7667,30.9333
Dayton,718353,-84.1998,39.7797
Enugu,715774,7.4942,6.4403
Xichang,712434,102.2706,27.8983
Santo Andre,710210,-46.5333,-23.6572
Chengxiang,709500,121.1043,31.4515
George Town,708127,100.3292,5.4145
Tolyatti,707408,49.4167,53.5167
Saharanpur,705478,77.546,29.964
Winnipeg,705244,-97.1464,49.8844
Quebec City,705103,-71.2081,46.8139
Dashiqiao,704891,122.5021,40.6328
Warangal,704570,79.6011,17.9756
Rochester,703952,-77.6162,43.168
Fresno,703498,-119.7941,36.7831
Jaboatao,702621,-35.0014,-8.1803
Latakia,700000,35.7917,35.5236
Changsha,699242,112.6877,22.3762
Soledad,698852,-74.77,10.92
Riga,698529,24.1069,56.9475
Osasco,694844,-46.7919,-23.5328
Bauchi,693700,9.8442,10.3158
Hamilton,693645,-79.8692,43.2567
Oslo,693494,10.7528,59.9111
Salem,693236,78.1667,11.65
Shishi,693000,118.6434,24.7355
Banjarmasin,692793,114.5833,-3.3333
Miluo Chengguanzhen,692080,113.0745,28.8049
Guadalupe,691931,-100.2597,25.6775
Gaizhou,691595,122.3499,40.4019
Shizuoka,691185,138.3825,34.9756
Malegaon,690844,74.55,20.55
Lodz,690422,19.4547,51.7769
Karbala',690100,44.0333,32.6167
Leling,689867,117.2167,37.7333
Sao Jose dos Campos,688597,-45.8869,-23.1789
Grenoble,687985,5.7224,45.1715
Acapulco de Juarez,687608,-99.8825,16.8636
Jianshe,687130,113.7693,34.2189
Chisinau,685900,28.8575,47.0056
Sheffield,685368,-1.4667,53.3833
Aracaju,685356,-37.0717,-10.9111
Jingcheng,684360,120.2547,32.0058
Allentown,683794,-75.4756,40.5961
Bahawalpur,681696,71.6722,29.3956
Xinmin,680000,122.8224,41.9952
Xigaze,679771,88.8799,29.2649
Shanhu,679762,120.8176,29.5908
Zhongshu,679624,106.4133,27.8116
Torreon,679288,-103.4486,25.5394
Gold Coast,679127,153.4,-28.0167
Tasikmalaya,678027,108.2,-7.3333
Kochi,677381,76.2833,9.9667
Cagayan de Oro,675950,124.65,8.4833
Palermo,674435,13.3613,38.1157
Gorakhpur,673446,83.3667,26.7611
Pinghu,671834,121.0104,30.7005
Guankou,671200,103.624,30.9933
Tulsa,671033,-95.9042,36.1284
Yatou,670251,122.4867,37.1653
Songyang,668592,113.0424,34.4161
Cape Coral,668382,-81.9956,26.6446
Ch'ongjin,667929,129.7831,41.8
Qionghu,667104,112.3595,28.8417
Yanshi Chengguanzhen,666696,112.7796,34.723
Ribeirao Preto,666323,-47.8067,-21.1783
Puyang Chengguanzhen,666322,114.98,35.7004
City of Paranaque,665822,121.0167,14.4667
Huambo,665564,15.7333,-12.7667
Sao Jose dos Pinhais,665063,-49.18,-25.57
Wenchang,664455,116.9507,31.054
Athens,664046,23.7161,37.9794
Shulan,663403,126.95,44.4167
Catia La Mar,661897,-67.0333,10.6
Bouake,659233,-5.0331,7.6833
Dasmarinas,659019,120.9367,14.3294
Bujumbura,658859,29.3611,-3.3825
As Sulaymaniyah,656100,45.4333,35.55
Hwasu-dong,655350,126.7667,37.2
Durango,654876,-104.6667,24.0167
Shimoga,654055,75.56,13.9304
Bulawayo,653337,28.5667,-20.1667
Jeonju,653055,127.1489,35.8219
Ansan,652800,126.8219,37.3236
Xiping,652604,103.8166,25.6005
Concord,652308,-122.0016,37.9722
Dali,652045,100.1564,25.7003
Sanhe,652042,117.0701,39.9808
Ch'onan,651661,127.1522,36.8064
Tiruppur,650000,77.3398,11.1075
Zaragoza,649404,-0.883,41.6483
Guntur,647508,80.45,16.3
Guixi,647240,117.2083,28.2861
Izhevsk,646277,53.2167,56.85
Sorocaba,644919,-47.4578,-23.5019
Wuxue,644247,115.5539,29.8518
Colorado Springs,642413,-104.7606,38.8674
Helsinki,642045,24.9342,60.1756
Ruiming,640600,116.0333,25.8833
Qufu,640498,116.9833,35.6
Villahermosa,640359,-92.9281,17.9892
Gaobeidian,640280,115.8678,39.3257
Skopje,640000,21.4333,41.9833
Utrecht,640000,5.12,52.1003
Rasht,639951,49.6,37.2833
Honcho,639107,139.9825,35.6947
Wroclaw,638586,17.0353,51.1077
Petaling Jaya,638516,101.6067,3.1073
Kikwit,637736,18.8167,-5.0333
Kuwait City,637411,47.98,29.375
Al Hufuf,637389,49.5997,25.3608
Xinshi,636776,113.1079,31.0236
Stuttgart,634830,9.1775,48.7761
Nantes,633690,-1.5528,47.2181
Barnaul,633301,83.7872,53.3567
Jin'e,633210,105.2868,29.3395
Cochabamba,632013,-66.157,-17.3935
Benghazi,631555,20.0667,32.1167
Kryvyy Rih,629695,33.3433,47.9086
Yanggok,629061,127.2142,37.6367
Charleston,628377,-79.9628,32.8153
Xinxing,627475,124.1453,39.8734
Suohe,626700,113.392,34.7879
Zhuangyuan,626683,120.8333,37.3
Raurkela,625831,84.8828,22.2492
Ulyanovsk,624518,48.3667,54.3167
Mangalore,623841,74.8806,12.8703
Irkutsk,623736,104.3,52.2833
Nanded,623708,77.3333,19.15
Springfield,623401,-72.5395,42.1155
Bazhou,622975,116.386,39.1235
Turpan,622903,89.1822,42.95
Valenzuela,620422,120.9833,14.7
Dusseldorf,619294,6.7724,51.2311
Halwan,619293,31.3342,29.8419
Pontianak,618388,109.3414,-0.0206
Meihekou,618251,125.678,42.5279
Jurong,617706,119.1595,31.9579
Zhugang,616346,121.2288,28.1277
Khabarovsk,616242,135.0667,48.4833
Xinji,615919,115.2118,37.9423
Changping,614821,116.1944,40.2248
Chimalhuacan,614453,-98.9,19.4167
Hamhung,614198,127.5333,39.9167
Buraydah,614093,43.9667,26.3333
Serang,613356,106.1503,-6.12
Xingtai,611739,114.4753,37.0659
Zhangshu,610424,115.5375,28.0667
Grand Rapids,609314,-85.6562,42.962
Yaroslavl,608079,39.85,57.6167
Montpellier,607896,3.8772,43.6119
Kuantan,607778,103.3333,3.8167
Vladivostok,606589,131.9,43.1167
Cuttack,606007,85.8667,20.45
San Miguel de Tucuman,605767,-65.2167,-26.8167
Uberlandia,604013,-48.2769,-18.9189
Zhuozhou,603535,115.9918,39.4887
Tianchang,602840,119.0041,32.6853
Sargodha,602631,72.6711,32.0836
Jambi,602187,103.61,-1.59
Bacoor,600609,120.9645,14.4624
Gothenburg,600473,11.981,57.6717
Canoas,600000,-51.18,-29.92
Qamdo,598862,97.1777,31.1375
Tuxtla,598710,-93.1167,16.7528
Balikpapan,598043,116.9031,-1.1489
Ta`izz,596672,44.0219,13.5789
Kagoshima,595319,130.5281,31.58
Chanda,595118,79.3,19.95
Durban,595061,31.025,-29.8583
Al Hillah,594605,46.7564,23.4895
General Santos,594446,125.1667,6.1167
Brampton,593638,-79.7667,43.6833
Mar del Plata,593337,-57.55,-38
Makhachkala,592976,47.4833,42.9833
Kawaguchi,592373,139.7242,35.8078
Luocheng,591115,104.28,30.9793
Mission Viejo,590249,-117.655,33.6095
Las Pinas City,588894,120.9833,14.45
Chuxiong,588620,101.5436,25.0461
Dortmund,587010,7.4653,51.5139
Cimahi,586580,107.5333,-6.8833
Albany,586383,-73.7987,42.6664
Knoxville,586048,-83.9496,35.9692
Shangzhi,585386,127.962,45.2116
Cuiaba,585367,-56.0969,-15.5958
Shah Alam,584340,101.5333,3.0833
Botou,584308,116.56,38.06
Essen,583109,7.0131,51.4508
Makati City,582602,121.0333,14.55
Kuiju,581470,119.3904,36.8528
Bucaramanga,581130,-73.1161,7.1186
Genoa,580097,8.934,44.4072
Kingston,580000,-76.7931,17.9714
At Ta'if,579970,40.4167,21.2667
Bakersfield,579295,-119.0359,35.3529
Ogden,578523,-111.9682,41.2278
Dehra Dun,578420,78.029,30.318
Hachioji,577560,139.3167,35.6667
Xiulin,577022,112.4037,29.7211
Fu'an,577000,119.6333,27.1
Tlaquepaque,575942,-103.3167,20.6167
Malaga,574654,-4.4167,36.7167
Vilnius,574147,25.2833,54.6833
San Jose del Monte,574089,121.0453,14.8139
Kerman,573449,57.0667,30.2833
Kingston upon Hull,573300,-0.3325,53.7444
Anyang,573296,126.9269,37.3925
Tomsk,572740,84.9522,56.4886
Luofeng,570898,120.396,37.359
Lingyuan,570660,119.3957,41.2407
Baton Rouge,570308,-91.131,30.4418
Pereira,568750,-75.68,4.8104
Macau,568700,113.545,22.203
Ciudad Bolivar,567953,-63.55,8.1167
San Salvador,567698,-89.1914,13.6989
Durgapur,566517,87.32,23.55
Shenzhou,566087,115.5541,38.0005
Akron,565208,-81.5219,41.0798
New Haven,564830,-72.9246,41.3112
Orenburg,564443,55.1,51.7667
Zhenzhou,564021,119.1619,32.2739
Asansol,563917,86.9667,23.6833
Djibouti,562000,43.1481,11.595
Jieshou,561956,115.3618,33.2605
Bacolod,561875,122.9509,10.6765
Zahedan,560725,60.8667,29.4833
Lanxi,560514,119.4722,29.2167
Columbia,560041,-80.9037,34.0376
Dangyang,560000,111.791,30.8258
Kemerovo,556920,86.0667,55.3333
Dresden,555805,13.7384,51.0493
Bhavnagar,554978,72.1369,21.765
Uyo,554906,7.85,5.008
Luanzhou,554315,118.6978,39.7396
Chiclayo,552508,-79.8366,-6.763
Veracruz,552156,-96.1533,19.1903
Surakarta,552118,110.8167,-7.5667
Novokuznetsk,552105,87.1167,53.75
Cabinda,550000,12.2,-5.55
Tlajomulco de Zuniga,549442,-103.4431,20.4736
Amravati,549370,77.75,20.9333
Korla,549324,86.1527,41.7646
Eslamshahr,548620,51.2,35.5333
Huanghua,548507,117.3329,38.371
Al Hudaydah,548433,42.9511,14.8022
Nellore,547621,79.9667,14.4333
Xingcheng,546176,120.7205,40.6189
Kaiyuan,545624,124.0371,42.538
Wancheng,545597,110.4,18.8
Fengcheng,543933,124.0646,40.4543
Al Mahallah al Kubra,543271,31.1667,30.9667
Sihui,542873,112.6956,23.3448
Leipzig,542529,12.3833,51.35
Ajmer,542321,74.639,26.468
Maturin,542259,-63.1832,9.7457
Tinnevelly,542200,77.7081,8.7289
Fuding,542000,120.2,27.2
An Nasiriyah,541600,46.2503,31.0539
Ibague,541101,-75.2006,4.4378
Al Hillah,541034,44.4333,32.4833
Panshi,539804,126.0561,42.9392
Poznan,538633,16.9167,52.4
Hannover,538068,9.7386,52.3744
Ryazan,537622,39.7167,54.6167
Chang'an,537500,113.448,29.4761
Wencheng,537426,110.75,19.6167
Kassala,536009,36.4,15.45
Aksu,535657,80.25,41.1664
Salta,535303,-65.4106,-24.7883
Kimhae,534124,128.8811,35.2342
Mingguang,532732,117.9899,32.7816
Astrakhan,532504,48.0167,46.3333
Tripoli,530000,35.8333,34.4333
Naberezhnyye Chelny,529797,52.3333,55.7
Antwerp,529247,4.3997,51.2211
Bikaner,529007,73.3169,28.0181
Ndola,528330,28.6337,-12.9683
Hamadan,528256,48.5162,34.8065
Villavicencio,527668,-73.6294,4.1425
Ailan Mubage,526745,81.3167,43.9167
Santa Teresa del Tuy,525321,-66.65,10.2333
Xalapa,525147,-96.9275,19.54
Port Said,524433,32.2833,31.25
Penza,523726,45,53.2
New Mirpur,523500,73.75,33.1333
Ciudad Apodaca,523370,-100.1833,25.7833
Yucheng,522878,116.6403,36.9329
Ensenada,522768,-116.6058,31.8578
Agartala,522613,91.2667,23.8333
Meknes,520428,-5.55,33.8833
Heroica Matamoros,520367,-97.5042,25.8797
Pohang,520305,129.365,36.0322
Londrina,520238,-51.18,-23.3
Shashi,520000,112.23,30.32
Bac Ninh,520000,106.0763,21.1861
Anda,520000,125.3252,46.4078
Jinghong,519935,100.7948,22.0057
Bello,519670,-75.57,6.33
Utsunomiya,519255,139.8833,36.55
Nuremberg,518365,11.0778,49.4528
Mesa,518012,-111.718,33.4017
Surrey,517887,-122.8489,49.19
Lyon,516092,4.84,45.76
Santa Marta,515556,-74.2017,11.2361
Ujjain,515215,75.7772,23.1828
Beining,514898,121.7932,41.5933
Yanji,513072,129.5067,42.9044
Benguela,513000,13.4167,-12.55
Tabuk,512629,36.5789,28.3972
Yicheng,512530,112.2551,31.7117
Cuautitlan Izcalli,511675,-99.25,19.65
Carrefour,511345,-72.4,18.5333
Lipetsk,510439,39.6,52.6167
Homyel',510300,30.9833,52.4417
Matsuyama,509139,132.7667,33.8333
Leicester,508916,-1.1333,52.6333
Linghai,508079,121.3558,41.1676
Hai Duong,507469,106.3331,20.9411
Aden,507355,45.0333,12.8
Palm Bay,507002,-80.6627,27.955
Jhansi,507000,78.5696,25.4486
Lisbon,506654,-9.1604,38.7452
Kashgar,506640,75.9833,39.45
Liaoyuan,506548,125.1381,42.8976
Ulhasnagar,506098,73.15,19.2167
Muntinlupa City,504509,121.05,14.3833
Samarkand,504423,66.9597,39.6542
Kitwe,504194,28.2119,-12.8208
Davangere,503564,75.9167,14.4667
Pingtung,503530,120.4942,22.6761
Mazatlan,502547,-106.42,23.22
Jammu,502197,74.85,32.7333
Ile-Ife,501952,4.5667,7.4667
Kirov,501468,49.65,58.6
Qaraghandy,501129,73.1167,49.8
Provo,500617,-111.6457,40.2457
Meicheng,500292,116.5689,30.6412
Aba,500183,7.3667,5.1167
Madinat as Sadis min Uktubar,500000,30.9269,29.9361
Mazatan,500000,-110.1333,29.0167
Mykolaiv,498748,32,46.9667
Duisburg,498590,6.7611,51.4322
Worcester,498328,-71.8079,42.2705
Hongjiang,498100,109.95,27.1167
Chimbote,497875,-78.5936,-9.0745
Johor Bahru,497097,103.7611,1.4556
Niteroi,496696,-43.1036,-22.8833
Beipiao,496164,120.7621,41.802
Dengtacun,496122,123.3203,41.4237
Murrieta,496046,-117.1909,33.572
Zhijiang,495995,111.7506,30.4271
Chengjiao,495744,114.0593,35.4043
Ichikawa,495592,139.9311,35.7219
Ixtapaluca,495563,-98.8822,19.3186
Heshan,494938,112.9578,22.7697
Higashi-osaka,494640,135.6008,34.6794
Rouen,494382,1.0886,49.4428
Oujda-Angad,494252,-1.9114,34.6867
Duyun,493574,107.5143,26.2672
Encheng,492814,112.3131,22.1879
Matsudo,492671,139.9031,35.7878
Kandahar,491500,65.7053,31.6078
Kota Bharu,491237,102.25,6.1333
Yuanping,491213,112.7134,38.7299
Valledupar,490075,-73.2597,10.4603
Vinh,490000,105.6922,18.6733
Ciudad Lopez Mateos,489937,-99.2833,19.55
Cheboksary,489498,47.25,56.1333
Port Sudan,489275,37.2164,19.6158
Belgaum,488157,74.5,15.8667
Edinburgh,488050,-3.189,55.953
Nishinomiya-hama,487413,135.3333,34.7333
Taozhou,487243,119.411,30.8956
Tultitlan de Mariano Escobedo,486998,-99.1694,19.645
Shahe,486329,114.502,36.8622
Yazd,486152,54.3678,31.8972
Suez,485342,32.5333,29.9667
Tula,485221,37.6167,54.2
Gaoping,484862,112.9259,35.7911
Brookhaven,484671,-72.9518,40.8321
Greenville,484465,-82.3647,34.8353
Arak,484212,49.7,34.08
Dunhua,483811,128.2333,43.3667
Gulbarga,483615,76.8333,17.3333
Jiaji,483217,110.4642,19.2431
Ardabil,482632,48.3,38.25
Wichita,482249,-97.3442,37.6896
Toledo,482111,-83.5822,41.6639
Feira de Santana,481911,-38.97,-12.25
Kaihua,481505,104.2437,23.3715
Az Zarqa',481300,36.1,32.0833
Fuyuan,480000,134.2875,48.3614
Jamnagar,479920,70.07,22.47
Sylhet,479837,91.8667,24.9
Americana,479472,-47.3314,-22.7392
Dhulia,479073,74.7833,20.9
Caerdydd,479000,-3.1833,51.4833
Nampula,477900,39.2667,-15.1167
Jiannan,477868,104.1994,31.3446
Florianopolis,477798,-48.553,-27.5933
Chiniot,477781,72.9833,31.7167
Oita,477701,131.6067,33.2333
Wuhai,477000,106.8114,39.6708
Nazret,476892,39.27,8.55
Sukkur,476776,68.8673,27.6995
San Nicolas de los Garza,476761,-100.2833,25.75
Staten Island,476143,-74.1496,40.5834
Nangong,476096,115.3803,37.3606
Kaliningrad,475056,20.5,54.7167
Macapa,474706,-51.0653,0.033
Gaya,474093,85.0167,24.75
Des Moines,473957,-93.6105,41.5725
Piura,473025,-80.6253,-5.2008
Vila Velha,472762,-40.2936,-20.3364
Jiaojiangcun,471500,121.45,28.6804
Laohekou,471482,111.6695,32.3849
San Juan,471389,-68.5364,-31.5375
Juiz de Fora,470193,-43.3503,-21.7642
Kitchener,470015,-80.4728,43.4186
Fujin,470000,132.0341,47.2489
Beian,470000,126.5037,48.2395
Xiaoyi,468770,111.7718,37.1449
Celaya,468469,-100.8122,20.5222
Qingzhen,467992,106.4646,26.5555
Ba`qubah,467900,44.6436,33.7447
Jiangshan,467862,118.6225,28.7412
Tamale,466723,-0.8533,9.4075
Piraeus,466065,23.7,37.95
Strasbourg,465069,7.7458,48.5833
Gdansk,464254,18.6333,54.3667
Jinchang,464200,102.1866,38.5168
Kanazawa,463873,136.65,36.5667
Long Beach,462628,-118.1675,33.7981
Fukuyama,462203,133.3625,34.4858
Calabar,461796,8.325,4.95
Manado,461636,124.8413,1.4931
Malatya,461574,38.3337,38.3554
Port St. Lucie,461152,-80.3883,27.2796
Jalgaon,460468,75.5667,21.0167
Monteria,460223,-75.8856,8.76
Xicheng,459781,103.1545,23.3629
Lanus,459263,-58.4,-34.7
Pyeongtaek,457873,127.0889,36.9947
Kurnool,457633,78.035,15.8222
Denton,457177,-97.1419,33.2176
Ar Ramadi,456853,43.3,33.4167
Volta Redonda,456362,-44.095,-22.5196
Jian'ou,456000,118.3215,27.0387
Shenmu,455493,110.4896,38.8389
Huadian,455339,126.7388,42.9688
Melaka,455300,102.2511,2.1889
Hue,455230,107.5833,16.4667
City of Calamba,454486,121.1667,14.2167
Maua,453286,-46.4608,-23.6678
Minzhu,453265,127.337,43.7192
Sfax,453050,10.72,34.75
Kota Kinabalu,452058,116.0725,5.975
Tel Aviv-Yafo,451523,34.8,32.0833
Udaipur,451100,73.6833,24.5833
Balashikha,450771,37.95,55.8
Marikina City,450741,121.1,14.65
Mariupol,449498,37.5639,47.1306
Kursk,449063,36.1872,51.7372
Constantine,448374,6.6147,36.365
Rajshahi,448087,88.6,24.3667
Barcelona,448016,-64.6833,10.1333
Iloilo,447992,122.5667,10.7167
Tanbei,447701,112.9317,35.0907
Madison,447245,-89.3931,43.0826
Batman,447106,41.1333,37.8833
Pingquan,446939,118.6848,41.0042
Ado-Ekiti,446749,5.2167,7.6167
Baisha,446000,119.2853,29.4774
Hsinchu,445635,120.9714,24.8047
Bellary,445388,76.915,15.15
Reno,445020,-119.8483,39.5497
Santiago de Cuba,444851,-75.8206,20.0283
Yongji,444724,110.4417,34.867
Danjiangkou,443755,111.5098,32.5408
Kahramanmaras,443575,36.9453,37.5875
Taoyuan District,443273,121.3111,24.9889
Sao Jose do Rio Preto,442548,-49.3789,-20.82
Harrisburg,442289,-76.8843,40.2752
Andijon,441700,72.35,40.7
Ning'an,440000,129.4621,44.3429
Little Rock,439815,-92.3576,34.7256
Al Mansurah,439348,31.3833,31.05
Beira,439264,34.85,-19.8333
Guangming,437559,122.7765,45.3357
Sunch'on,437000,125.9333,39.4167
Bukavu,436779,28.8667,-2.5
Sangli,436639,74.5667,16.8667
Herat,436300,62.1792,34.3738
Tuticorin,436094,78.1333,8.7833
Larkana,435817,68.2264,27.56
Bandar `Abbas,435751,56.25,27.2
Jeju,435413,126.5219,33.5097
Nancy,434565,6.1846,48.6936
Tallinn,434562,24.745,59.4372
Machida,434407,139.4467,35.5486
Zurich,434008,8.54,47.3786
Kupang,433970,123.5778,-10.1633
Santos,433966,-46.3339,-23.9608
Cape Town,433688,18.425,-33.925
Stavropol,433577,41.9833,45.05
Zanjan,433475,48.4833,36.6667
Oakland,433031,-122.2165,37.7903
Kashan,432557,51.4333,33.9833
Katsina,432149,7.6017,12.9908
Welkom,431944,26.7208,-27.9831
Ulan-Ude,431922,107.6064,51.8272
Calicut,431560,75.7667,11.25
Kenitra,431282,-6.5833,34.25
Khamis Mushayt,430828,42.7333,18.3
Masan,429612,128.55,35.1833
Bratislava,429564,17.1128,48.1447
Tanta,429503,31,30.7833
Kashiwa,429070,139.9689,35.8544
Sevastopol,428753,33.5333,44.6
Cusco,428450,-71.9781,-13.5183
Mazar-e Sharif,427600,67.1167,36.7
Canberra,426704,149.1269,-35.2931
Toyota,426477,137.1567,35.0833
Yan'an Beilu,426253,87.2961,44.0222
Akola,425817,77,20.7333
Kihung,425184,127.1167,37.4167
Durham,424700,-78.9031,35.9794
Mogi das Cruzes,424633,-46.1931,-23.5228
Laval,422993,-73.75,45.5833
Yogyakarta,422732,110.3644,-7.8014
Likasi,422535,26.7333,-10.9833
Winston-Salem,422269,-80.2611,36.1029
Agadir,421844,-9.5833,30.4167
Elazig,421726,39.2167,38.6667
Uijeongbu,421579,127.0389,37.7486
Hpa-An,421525,97.6333,16.8906
Bonita Springs,421291,-81.7861,26.3559
Kumi,421075,128.3544,36.21
Akure,420594,5.195,7.25
Hailin,420000,129.3825,44.5735
Seremban,419536,101.9381,2.7297
Zhengjiatun,419529,123.5003,43.513
Lecheng,419500,113.3472,25.1307
Tver,419363,35.9219,56.8578
Pencheng,419047,115.6611,29.6792
Takamatsu,418772,134.05,34.35
Wellington,418500,174.7772,-41.2889
Tirana,418495,19.82,41.33
El Obeid,418280,30.2167,13.1833
Magnitogorsk,418241,59.0333,53.3833
Dalai,418232,124.2863,45.505
Kolwezi,418000,25.4667,-10.7167
Luhansk,417990,39.3333,48.5833
Xingren,417919,105.1907,25.4352
